location_id,cardholder_id,street,city_id,zip_code,latitude,longitude
1,1,351 Darlene Green,1,29209,33.9659,-80.9355
2,2,3638 Marsh Union,2,84002,40.3207,-110.436
3,3,9333 Valentine Point,3,11710,40.6729,-73.5365
4,4,32941 Krystal Mill Apt. 552,4,32780,28.5697,-80.8191
5,5,5783 Evan Roads Apt. 465,5,49632,44.2529,-85.017
6,6,76752 David Lodge Apt. 064,6,14816,42.1939,-76.7361
7,7,010 Weaver Land,7,95528,40.507,-123.9743
8,8,350 Stacy Glens,8,57374,43.7557,-97.5936
9,9,4138 David Fall,9,16858,41.0001,-78.2357
10,10,7921 Robert Port Suite 343,10,76678,31.6591,-96.8094
11,11,43235 Mckenzie Views Apt. 837,11,40077,38.4921,-85.4524
12,12,45654 Hess Rest,12,82514,43.0048,-108.8964
13,13,244 Abbott Parkway,13,33470,26.7383,-80.276
14,14,977 Rita Grove Apt. 000,14,12575,41.4575,-74.1659
15,15,4038 Smith Avenue,15,36749,32.5104,-86.8138
16,16,5097 Jodi Vista Suite 811,16,32725,28.8989,-81.2473
17,17,838 Franklin Prairie Apt. 902,17,33040,24.6557,-81.3824
18,18,03030 White Lakes,18,76050,32.2779,-97.2351
19,19,65417 Walsh Radial Suite 691,19,70774,30.2385,-90.8435
20,20,444 Robert Mews,20,16114,41.3851,-80.1752
21,21,9345 Spencer Junctions Suite 183,21,30009,34.077,-84.3033
22,22,20581 Pena Walks,22,80951,38.8881,-104.6556
23,23,28711 Kristine Junction Suite 309,23,45331,40.0987,-84.6342
24,24,181 Moreno Light Apt. 215,24,54487,45.4963,-89.7273
25,25,26544 Andrea Glen,25,48438,42.9147,-83.4845
26,26,508 Erin Mount,26,94015,37.6787,-122.478
27,27,50843 Vincent Mission,27,5155,43.1699,-72.8515
28,28,7233 John Parks,28,72354,35.6069,-90.3359
29,29,659 Nicole Cove Suite 560,29,77358,30.5354,-95.4532
30,30,022 Moore Island,30,10162,40.7699,-73.9511
31,31,5537 Jessica Plaza,31,40056,38.3039,-85.4834
32,32,2481 Mills Lock,32,7060,40.6152,-74.415
33,33,384 Newman Forks Apt. 370,33,50421,42.8511,-93.62
34,34,982 Melissa Lock,34,53801,42.9207,-91.0685
35,35,47152 Clayton Burg,35,21102,39.6747,-76.8941
36,36,26975 Richardson Mills Apt. 402,36,39665,31.6453,-90.1801
37,37,17547 Stephen Turnpike Apt. 846,37,90250,33.9143,-118.3493
38,38,06393 Nancy Parkways Suite 855,38,35903,33.9845,-85.9077
39,39,16285 Jessica Lights,39,35229,33.4629,-86.7904
40,40,69252 Oconnor Alley Apt. 153,40,52576,41.2001,-92.1354
41,41,50872 Alex Plain Suite 088,41,70808,30.4066,-91.1468
42,42,4130 Tiffany Glen Apt. 562,42,78248,29.5894,-98.5201
43,43,81261 Garcia Underpass Suite 741,43,48034,42.4969,-83.2911
44,44,13108 Jennifer Passage,44,67556,38.5957,-99.554
45,45,25036 Contreras Turnpike Suite 270,45,76566,31.4841,-97.9903
46,46,908 Brooks Brook,46,61454,40.6761,-91.0391
47,47,8617 Holmes Terrace Suite 651,47,21790,39.2667,-77.5101
48,48,3789 Mark Walks,48,38778,33.5567,-90.5451
49,49,6682 Green Forks,49,7439,41.0767,-74.5982
50,50,1898 Parker Fork Apt. 057,50,63665,37.3272,-91.0243
51,51,426 Mark Ports,51,4616,44.2541,-68.5565
52,52,34180 Lopez Plaza,52,95537,40.7268,-124.2174
53,53,19838 Tonya Prairie Apt. 947,53,65072,38.2911,-92.7059
54,54,49120 Regina Island Apt. 170,54,34953,27.2625,-80.3793
55,55,25887 Martin Inlet,55,5654,44.1554,-72.4847
56,56,39787 Pamela Fall Suite 639,56,38079,36.3846,-89.4649
57,57,330 Montoya Ramp,57,20036,38.9087,-77.0414
58,58,6970 Blake Trail,58,33760,27.9004,-82.7152
59,59,4970 Michelle Burgs,59,11217,40.6816,-73.9798
60,60,8172 Robertson Parkways Suite 072,60,85173,33.2887,-111.0985
61,61,725 Jo Trace Apt. 102,61,91206,34.1556,-118.2322
62,62,428 Morgan River,62,12534,42.247,-73.7552
63,63,05050 Rogers Well Apt. 439,63,82901,41.606,-109.23
64,64,22084 Smith Roads Suite 776,64,57036,43.2893,-97.1904
65,65,87665 Karen Mill Apt. 586,65,33967,26.4722,-81.8122
66,66,9795 Lori Island Suite 346,66,59542,48.8328,-108.3961
67,67,302 Christina Islands,67,42171,37.0581,-86.1938
68,68,269 Sanchez Rapids,68,7208,40.6747,-74.2239
69,69,72966 Shannon Pass Apt. 391,69,72011,34.5091,-92.4828
70,70,01892 Patricia Vista Apt. 828,70,75048,32.9643,-96.6012
71,71,3896 Gilmore Mill,71,56029,43.5089,-93.4824
72,72,7188 Melissa Crest Apt. 151,72,53061,43.9446,-88.0911
73,73,3337 Lisa Divide,73,33710,27.7898,-82.7243
74,74,494 Burke Ports,74,15324,40.1008,-80.0652
75,75,6447 Johnson Estates Apt. 986,75,73564,34.847,-98.9836
76,76,7618 Gonzales Mission,76,64019,38.7897,-93.8702
77,77,7202 Jeffrey Mills,77,98238,48.34,-122.3456
78,78,4215 Miranda Field Suite 326,78,26237,38.8564,-80.158
79,79,1742 Brandon Squares Apt. 461,79,88355,33.3305,-105.6933
80,80,0495 Baker Manors,80,13425,42.9576,-75.4838
81,81,24318 Dixon Mills,81,49629,44.8955,-85.4082
82,82,47144 Roberts Keys,82,7750,40.333,-73.9809
83,83,06730 Joshua Isle Suite 555,83,1535,42.2665,-72.0821
84,84,27718 Mason Bypass,84,45051,39.0965,-84.6431
85,85,478 George Course Apt. 056,85,68438,40.6267,-96.7456
86,86,411 Laurie Fords,86,24927,38.388,-79.9906
87,87,3326 Hannah Fords,87,72524,35.8184,-91.3375
88,88,43576 Kristina Islands,88,25442,39.3716,-77.8229
89,89,979 Stewart Lake,89,29809,33.413,-81.69
90,90,952 Joseph Throughway,90,49259,42.3703,-84.2485
91,91,40624 Rebecca Spurs,91,72042,34.2853,-91.3336
92,92,587 Bradley Inlet Suite 281,92,44223,41.1464,-81.5107
93,93,3861 Anderson Ramp Apt. 536,93,23937,36.9688,-78.5615
94,94,61390 Hayes Port,94,48174,42.2203,-83.3583
95,95,86882 Desiree Camp Suite 047,95,21865,38.2833,-75.8465
96,96,8425 Daniel Knolls Suite 288,96,19154,40.0897,-74.9781
97,97,474 Allen Haven,97,68859,41.4972,-98.7858
98,98,64851 Cole Turnpike,98,36344,31.086,-85.7192
99,99,7118 Jessica Unions Apt. 789,99,87035,34.9889,-106.0609
100,100,1497 West Gateway,100,61530,40.7152,-89.2706
101,101,433 Blake Roads Suite 967,101,64874,36.7651,-94.0492
102,102,477 Wheeler Burg,102,43102,39.6251,-82.7552
103,103,9734 Beard Fields Suite 885,103,77412,29.6047,-96.5249
104,104,68276 Matthew Springs,104,75858,31.3833,-95.0619
105,105,319 Wendy Fort Suite 179,105,37132,35.8596,-86.421
106,106,28812 Charles Mill Apt. 628,106,36758,32.6176,-86.9475
107,107,6296 John Keys Suite 858,107,60958,41.0646,-87.5917
108,108,44259 Beth Station Suite 215,108,73754,36.385,-98.0727
109,109,72269 Elizabeth Field Apt. 132,109,85020,33.5623,-112.0559
110,110,117 Natasha Vista Suite 936,110,75452,33.4044,-96.2238
111,111,82448 Tucker Cliff,111,3905,43.0976,-70.7121
112,112,3270 Scott Islands,112,4226,44.6084,-70.6993
113,113,4503 Patricia Route,113,83646,43.6498,-116.4306
114,114,854 Walker Dale Suite 488,114,4287,44.0575,-69.9656
115,115,8152 Brittany Centers,115,75218,32.8463,-96.6972
116,116,767 Adam Mill Apt. 115,116,87533,35.9866,-106.0654
117,117,67210 Lori Creek,117,75092,33.6372,-96.6184
118,118,1626 Susan Course,118,76008,32.7004,-97.6039
119,119,782 Lee Crossing Apt. 209,119,68463,40.8731,-96.1528
120,120,094 Owens Underpass,120,90650,33.9056,-118.0818
121,121,12087 Michael Light,121,45622,39.3543,-82.503
122,122,212 Mary Stream,122,49613,44.5232,-86.2061
123,123,77921 Costa Villages,123,97403,44.0385,-123.0614
124,124,954 Reyes Ways,124,57340,43.7588,-97.8712
125,125,8088 Sherman Radial Suite 689,125,93627,36.4992,-120.0936
126,126,372 Jeffrey Course,126,69165,41.1558,-101.136
127,127,8925 Nicholas Points,127,70531,30.251,-92.5002
128,128,670 Le Meadows Suite 250,128,33811,27.9865,-82.0139
129,129,9331 Robert Passage Suite 327,129,67545,38.1485,-98.6408
130,130,2870 Bean Terrace Apt. 756,130,26292,39.1505,-79.503
131,131,53696 Laura Radial,131,68950,40.4542,-98.6538
132,132,02110 Lucas Freeway Suite 517,132,51006,42.3327,-95.6045
133,133,0374 Courtney Islands Apt. 400,133,41812,37.2409,-82.7696
134,134,33165 Larry Walks Suite 960,134,35131,33.7367,-86.1619
135,135,393 Carroll Route Suite 197,135,31771,31.2462,-83.6549
136,136,658 Diane Glen Apt. 677,136,16048,41.0472,-79.8089
137,137,572 Davis Mountains,137,77566,29.0393,-95.4401
138,138,56812 Francis Courts,138,21524,39.6967,-78.8031
139,139,537 Rice Square Suite 040,139,45150,39.1657,-84.233
140,140,79472 Stevens Trace Apt. 120,140,13647,44.6087,-74.9732
141,141,43809 Kenneth Circles Suite 152,141,24983,37.5802,-80.5248
142,142,14601 Downs Skyway Apt. 440,142,76951,31.8351,-101.0017
143,143,078 Alex Fields,143,15480,39.9961,-79.7678
144,144,821 Solis Points,144,49440,43.2326,-86.2492
145,145,9886 Anita Drive,12,82514,43.0048,-108.8964
146,146,01505 Amy Stravenue,145,45415,39.8355,-84.2613
147,147,17666 David Valleys,146,92585,33.7467,-117.1721
148,148,3653 Ryan Crossroad,147,46702,40.8618,-85.6067
149,149,557 Lynn Garden Suite 907,148,83869,47.9657,-116.868
150,150,1166 Castillo Mountains,149,22968,38.2586,-78.4074
151,151,594 Berry Lights Apt. 392,150,28405,34.2651,-77.867
152,152,4938 Hatfield Course,151,25106,38.8265,-82.1364
153,153,6313 Scott Trace,152,60963,40.3625,-87.6692
154,154,062 Carl Dam,153,12910,44.8816,-73.6408
155,155,17355 Mendoza Bypass Suite 059,154,21090,39.2092,-76.6681
156,156,17819 Jose Mount Suite 657,155,39439,31.882,-88.9981
157,157,950 Dunn Squares,156,70466,30.5668,-90.482
158,158,109 Brian Lights Apt. 504,157,15077,40.6025,-80.3863
159,159,1683 Davidson Freeway,158,84325,41.71,-111.9817
160,160,78652 Scott Ports,159,1330,42.5232,-72.811
161,161,3379 Williams Common,160,80120,39.5994,-105.0044
162,162,01479 Murray Circle,161,7747,40.4109,-74.238
163,163,5554 Mack Meadows,162,24878,37.3752,-81.6539
164,164,673 Delgado Burg,163,8323,39.4055,-75.3209
165,165,234 Bridges Wells Apt. 389,164,3816,43.6849,-71.2551
166,166,94975 David Mews Apt. 316,165,79085,34.7437,-102.5064
167,167,836 Stephanie Union,166,49621,44.8605,-85.8138
168,168,250 Carrie Throughway,167,38677,34.3396,-89.5736
169,169,0665 Lisa Alley,168,56592,47.5375,-95.9941
170,170,1339 Johnson Landing Suite 007,169,13752,42.189,-74.9229
171,171,574 David Locks Suite 207,170,12419,41.8467,-74.1038
172,172,5939 Garcia Forges Suite 297,42,78214,29.3641,-98.4924
173,173,25748 John Wells,171,28117,35.584,-80.8685
174,174,2788 Brittney Island,172,64726,38.5319,-93.9221
175,175,27386 Snyder Station,173,48371,42.8223,-83.2829
176,176,67632 Martin Gateway,174,70732,30.6576,-91.6264
177,177,000 Jennifer Mills,175,98027,47.4974,-122.0107
178,178,857 Aaron Circles Suite 398,176,29455,32.8357,-79.8217
179,179,1561 Chase Grove,177,3818,43.9742,-71.1503
180,180,07712 Marcus Divide Apt. 831,178,92637,33.615,-117.7114
181,181,486 Wilkins Pines,179,43136,39.8013,-82.8125
182,182,25454 Leonard Lake,180,15686,40.6153,-79.4545
183,183,997 Cameron Meadow Apt. 980,181,5486,44.64,-73.3113
184,184,715 Joy Prairie,182,63565,40.4815,-92.9951
185,185,21447 Powell Circle,183,52572,40.6866,-92.6833
186,186,23843 Scott Island,184,52535,40.8626,-91.9534
187,187,9554 Flores Drive,185,63010,38.4305,-90.387
188,188,702 Tabitha Drive,186,47863,39.5803,-87.4616
189,189,1250 Christopher Prairie Suite 016,187,94569,38.046,-122.1866
190,190,7535 Amanda Manors Suite 293,188,71960,34.4596,-93.6743
191,191,184 Miller Manors,189,54499,44.8232,-89.1665
192,192,555 Michael Burgs,190,39113,32.9013,-91.0286
193,193,0110 Ashley Forest,191,99033,47.2271,-117.0819
194,194,71309 Martinez Stravenue,192,37663,36.4715,-82.4834
195,195,98897 Bennett Lodge,193,35022,33.3224,-86.9657
196,196,516 Brown Parks,194,49854,46.0062,-86.2555
197,197,4319 Watson Shoals Suite 658,195,14733,42.1239,-79.1895
198,198,08056 Alvarado Club Suite 699,109,85086,33.8155,-112.1202
199,199,1652 James Mews,196,44233,41.2419,-81.7453
200,200,502 Rice Plaza Apt. 979,197,12466,41.8948,-73.9767
201,201,835 Reese Views Suite 884,198,29061,33.9349,-80.8449
202,202,7178 Willis Drive,199,68031,41.6414,-96.5232
203,203,7055 Fernandez Estates Apt. 676,200,21913,39.4015,-75.8654
204,204,2819 Luke Greens Suite 563,201,64114,38.9621,-94.5959
205,205,00315 Ashley Valleys,202,67020,38.0261,-97.6666
206,206,97070 Anderson Land,203,33844,28.0758,-81.5929
207,207,165 Jerry Meadows Suite 460,204,31563,31.6489,-82.1982
208,208,1441 Bradley Place,205,28073,35.1836,-81.4552
209,209,386 Randolph Throughway,206,44483,41.2639,-80.8164
210,210,8614 Reed Glen,207,10604,41.0592,-73.7395
211,211,3206 Hall Divide Suite 282,208,35776,34.6689,-86.2296
212,212,4529 Cannon Alley,209,26339,39.4125,-80.6352
213,213,554 Mcdonald Valley Apt. 539,210,76665,31.929,-97.6443
214,214,06959 Stephen Branch Suite 246,211,72165,35.5762,-91.4539
215,215,383 Contreras Hills Suite 658,212,77338,30.0041,-95.2825
216,216,15315 Vaughn Park Suite 356,213,55606,47.8342,-90.0476
217,217,8149 Harris Divide,214,73134,35.6174,-97.5583
218,218,169 Shelia Knoll Suite 753,215,75980,31.1569,-94.3871
219,219,949 Smith Parkway,216,53924,43.4987,-90.2796
220,220,05561 Farrell Crescent,217,21405,39.0305,-76.5515
221,221,622 Bradley Knoll Apt. 758,218,21750,39.6991,-78.1762
222,222,180 Graves Shore,219,29939,32.6786,-81.2455
223,223,11014 Chad Lake Apt. 573,220,59448,48.2777,-112.8456
224,224,3047 Jeff Place,221,79842,30.1886,-103.2214
225,225,7898 Wanda Springs,222,92882,33.8419,-117.6043
226,226,589 Matthew Brooks,223,77026,29.7972,-95.3288
227,227,248 James Squares Apt. 838,224,56548,47.3551,-96.798
228,228,789 Herring Manors,223,77007,29.7736,-95.4034
229,229,9486 Joel Common Suite 554,225,66618,39.1329,-95.7023
230,230,1447 Ryan Lodge,226,36541,30.4983,-88.3282
231,231,31281 Thomas Inlet,227,10548,41.2496,-73.9446
232,232,3645 Atkins Island Apt. 238,228,66941,39.7562,-98.4462
233,233,707 Anthony Causeway,229,46765,41.2249,-85.0301
234,234,2807 Parker Station Suite 080,230,55080,45.6675,-93.2433
235,235,250 Benjamin Hill Apt. 026,231,36617,30.7145,-88.0918
236,236,194 Goodman Fall Apt. 569,232,98233,48.4786,-122.3345
237,237,9379 Vanessa Run Apt. 400,233,51453,42.2619,-94.5566
238,238,47035 Murray Harbors,234,74720,33.8396,-96.3648
239,239,550 Cunningham Squares,235,36853,32.8224,-85.7704
240,240,4655 David Island,236,18917,40.375,-75.2045
241,241,433 John Heights Apt. 849,237,22719,38.5095,-78.2638
242,242,5654 Peterson Land,238,39157,32.4122,-90.1207
243,243,2497 John Motorway Suite 922,239,15056,40.5662,-80.2099
244,244,4005 Dana Glens,240,1844,42.728,-71.181
245,245,77872 Andrea Glen Apt. 543,241,23850,37.1349,-77.7364
246,246,81708 Christopher Plaza,242,13361,42.8948,-74.8209
247,247,3522 Park Wells Suite 528,243,77327,30.33,-95.0202
248,248,2632 Stevens Light Apt. 213,244,62360,39.8153,-91.2627
249,249,7838 Jason Squares,245,42701,37.6848,-85.8784
250,250,3512 Knight Center,246,79343,33.6666,-101.5277
251,251,830 Myers Plaza Apt. 384,247,73034,35.6665,-97.4798
252,252,32745 Silva Springs Suite 040,226,36541,30.4983,-88.3282
253,253,07177 William Dale Apt. 547,248,90403,34.0287,-118.4924
254,254,0547 Russell Ford Suite 574,249,80824,39.6171,-102.4776
255,255,1833 Jeanette Stravenue,250,59714,45.7801,-111.1439
256,256,862 Anderson Highway,251,54418,45.203,-88.9983
257,257,4511 Choi Lock,252,71232,32.3929,-91.4714
258,258,75533 Tamara Valleys,253,62856,37.9943,-88.9417
259,259,43039 Riley Greens Suite 393,254,99160,48.8878,-118.2105
260,260,2677 Byrd Village Suite 035,255,95148,37.3304,-121.7913
261,261,6114 Adams Harbor Suite 096,256,46346,41.4802,-86.6919
262,262,210 Dean Causeway Suite 130,257,51003,42.9782,-96.0173
263,263,639 Cruz Islands,258,49101,41.9488,-86.4913
264,264,8851 Reese Neck,259,22810,38.8089,-78.7776
265,265,83690 Nicholas Ports Apt. 846,260,38060,35.2229,-89.5518
266,266,663 Anna Plaza,261,16239,41.4622,-79.1306
267,267,3539 Mckenzie Stream,262,7022,40.817,-74
268,268,597 Jenny Ford Apt. 543,263,12986,44.232,-74.4905
269,269,576 House Crossroad,264,11796,40.732,-73.1
270,270,864 Reynolds Plains,265,15484,39.8936,-79.7856
271,271,974 Cindy Stream,266,5733,43.8065,-73.0882
272,272,826 Benjamin Stravenue,267,22311,38.832,-77.12
273,273,8619 Lisa Manors Apt. 871,268,82221,41.6423,-104.1974
274,274,641 Steven Mall Apt. 299,269,11978,40.8295,-72.6473
275,275,868 Brady Mill Apt. 837,270,70056,29.8872,-90.0331
276,276,58665 Nicholas Ford Suite 348,271,1257,42.1001,-73.3611
277,277,26572 Hodge Villages Suite 512,272,17058,40.5553,-77.4001
278,278,6574 William Hill Apt. 375,273,18433,41.5744,-75.5881
279,279,034 Kimberly Mountains,274,33510,27.9551,-82.2966
280,280,892 Solis Neck,275,55046,44.4477,-93.4252
281,281,3786 Hale Corners,276,42273,37.2048,-86.8592
282,282,4293 Ramirez Squares,277,56668,48.6031,-93.2977
283,283,292 Cassidy Oval,278,13367,43.7893,-75.4156
284,284,1852 Vincent Isle Suite 328,279,13811,42.2281,-76.1625
285,285,8957 Russell Key,280,35747,34.4959,-86.259
286,286,9443 Cynthia Court Apt. 038,281,59632,46.2306,-112.1138
287,287,622 Robin Run Suite 764,38,35901,34.048,-85.9246
288,288,21326 Taylor Squares Suite 708,282,37040,36.522,-87.349
289,289,35822 Clayton Street Apt. 679,283,20634,38.2674,-76.4954
290,290,030 Seth Divide Suite 355,284,74131,36.0557,-96.0602
291,291,0371 Aimee Neck Suite 856,285,95827,38.5662,-121.3286
292,292,8030 Beck Motorway,286,38761,33.4783,-90.5142
293,293,31701 Tucker Square Suite 893,287,58579,47.1709,-100.7944
294,294,696 Matthew Ford Suite 157,288,62970,37.1935,-89.0933
295,295,6139 Mark Rapid Apt. 651,289,58015,46.5522,-96.7909
296,296,911 Sabrina Trafficway,290,16314,41.5205,-80.0573
297,297,7644 Joseph Fields,291,62075,39.3036,-89.2853
298,298,759 Erin Mount Suite 956,292,76857,31.9571,-98.9656
299,299,199 Patterson Fords Apt. 132,293,34112,26.1184,-81.7361
300,300,748 Bryan Fields Suite 935,294,82501,43.0351,-108.2024
301,301,66234 Hall Lock Suite 758,295,39211,32.3739,-90.1293
302,302,715 Courtney Pike Suite 932,296,76248,32.9276,-97.2489
303,303,32301 Albert River Suite 364,297,24970,37.7418,-80.4626
304,304,941 Adam Stravenue,298,79063,34.5444,-102.1069
305,305,5517 Stacy Land,299,82063,41.0539,-106.0763
306,306,969 Huerta Path Apt. 270,300,69201,42.8062,-100.6215
307,307,9572 Austin Forge Suite 612,301,43408,41.5686,-83.3632
308,308,137 Adam Dale,302,24266,36.8809,-82.0956
309,309,77663 Colleen Freeway,303,26041,39.9148,-80.731
310,310,101 Carla Loop,304,96136,40.3406,-120.2824
311,311,31472 Cody Place Suite 740,305,20895,39.0298,-77.0793
312,312,686 Linda Rest,306,75662,32.3836,-94.8653
313,313,543 Ware Path Apt. 593,307,64686,39.7417,-93.6289
314,314,2924 Bobby Trafficway,308,33872,27.4703,-81.4872
315,315,400 Zuniga Pine,309,4364,44.3229,-69.9576
316,316,542 Howe Mission Apt. 092,310,34668,28.3011,-82.6927
317,317,1831 Faith View Suite 653,311,51632,40.7491,-95.038
318,318,1004 Willis Pass,312,79237,34.8698,-100.6806
319,319,737 Thomas Wall Apt. 502,313,4286,44.402,-70.8601
320,320,7107 Henderson Station,314,97014,45.671,-121.8686
321,321,954 Green Wall,315,46723,41.229,-85.3244
322,322,95835 Garcia Rue,316,29320,34.9572,-81.9916
323,323,198 Candace Plaza,317,44412,41.0935,-81.0425
324,324,57256 Raymond Ports,318,37932,35.9335,-84.1481
325,325,2851 Foster Shoals,319,17088,40.3087,-76.2963
326,326,5572 Kelly Plains Apt. 952,320,54981,44.3481,-89.1101
327,327,3256 Brooks Field,321,35554,33.9315,-87.6194
328,328,6983 Carrillo Isle,322,29438,32.5486,-80.307
329,329,6881 King Isle Suite 228,323,6441,41.4682,-72.5751
330,330,380 Martin Mission,324,30426,33.0437,-81.7106
331,331,55363 Aaron Circle Suite 450,325,17041,40.2236,-76.538
332,332,542 Steve Curve Suite 011,326,28611,35.9946,-81.7266
333,333,9047 Rodriguez Turnpike,327,27249,36.1183,-79.5685
334,334,63991 Destiny Rue Apt. 651,328,75703,32.2768,-95.3031
335,335,70761 Fitzpatrick Brooks Suite 631,329,54559,46.4959,-90.4383
336,336,923 Jordan Road,330,55001,44.8696,-92.8234
337,337,44951 Williams Brooks,331,39572,30.2508,-89.6011
338,338,376 Brown Courts,332,82190,44.7957,-110.6137
339,339,0356 Sarah Light,333,63021,38.577,-90.5255
340,340,994 Livingston Extensions Suite 918,334,44857,41.2403,-82.6078
341,341,7507 Larry Passage Suite 859,335,43760,39.8788,-82.188
342,342,82073 Jessica Camp,336,31567,31.6143,-82.7243
343,343,09419 Lewis Rapids,337,48706,43.6088,-83.953
344,344,561 Little Plain Apt. 738,338,49895,46.3535,-86.6345
345,345,70858 Jasmine Meadows Apt. 135,339,45801,40.7641,-84.0973
346,346,7428 Martinez Flats,340,32935,28.1384,-80.6524
347,347,3531 Hamilton Highway,341,78584,26.4215,-99.0025
348,348,166 Lisa Fords,342,46143,39.596,-86.1309
349,349,1911 Fisher Brook,343,87117,35.0203,-106.5503
350,350,566 Megan Well,344,13615,44.0577,-76.0196
351,351,7020 Doyle Stream Apt. 951,345,83643,44.6255,-116.4493
352,352,47029 Jimmy Tunnel Apt. 106,346,91321,34.3795,-118.523
353,353,23220 Eaton Harbors,347,43330,40.813,-83.4196
354,354,713 Scott Pike Apt. 712,348,59014,45.2857,-108.9082
355,355,2838 White Fields Apt. 473,349,29911,32.9413,-81.1807
356,356,897 Daugherty Mission,350,16839,41.0036,-78.1104
357,357,54822 Hill Forks,351,62424,39.0319,-88.4074
358,358,87198 Macias Drive Suite 389,352,88256,32.274,-104.0914
359,359,4257 Perez Mall,353,44702,40.8027,-81.3739
360,360,29156 Mark Park Apt. 108,354,67584,38.6411,-100.138
361,361,28311 Dennis Trace,355,12222,42.6853,-73.8253
362,362,93914 Gregory Via,356,94619,37.7878,-122.1884
363,363,709 George Underpass Apt. 080,357,16878,40.9493,-78.3129
364,364,03512 Jackson Ports,358,89512,39.5483,-119.7957
365,365,478 Donovan Corners Apt. 803,359,60193,42.0144,-88.0935
366,366,5916 Susan Bridge Apt. 939,360,96038,41.6125,-122.5258
367,367,899 Michele View Suite 960,96,19149,40.0369,-75.0664
368,368,8969 Fuentes Station Apt. 291,361,17060,40.4679,-77.8967
369,369,79414 Clark Lakes Suite 966,362,48088,42.5164,-82.9832
370,370,9016 Jordan Bypass Apt. 516,363,40820,36.7558,-83.1838
371,371,841 Cheryl Centers Suite 115,364,14425,42.958,-77.3083
372,372,97689 Davis Point Apt. 967,365,48214,42.3669,-82.9938
373,373,384 Jonathan Hills,366,8830,40.5716,-74.3167
374,374,0925 Lang Extensions,367,58569,46.1838,-101.2589
375,375,2027 Snyder Track,368,82227,42.73,-104.7024
376,376,41851 Victor Drives Suite 219,369,18103,40.5891,-75.4645
377,377,6278 Stephanie Unions,30,10039,40.8265,-73.9383
378,378,624 Hale Springs Apt. 572,370,64659,39.7795,-93.3014
379,379,222 Freeman Islands,371,39897,30.8836,-84.3246
380,380,950 Sheryl Spurs,372,15432,40.1151,-79.8627
381,381,611 Michael Rue,373,61830,39.9972,-88.6962
382,382,162 Jessica Row Apt. 072,374,84735,37.7175,-112.4777
383,383,586 Thomas Cliffs,375,54154,44.8755,-88.1555
384,384,5569 Phillips Neck Apt. 003,376,38922,33.9215,-89.6782
385,385,5930 Rebecca Bridge Apt. 444,377,35764,34.7031,-86.3068
386,386,7600 Stephen Course Suite 031,378,87558,36.6659,-105.4694
387,387,874 Fred Knolls Apt. 609,379,11957,41.1437,-72.2879
388,388,95351 Sullivan Viaduct Apt. 239,380,33981,26.9379,-82.2388
389,389,0043 Henry Plaza,381,36009,31.571,-86.2743
390,390,079 Chelsea Rest,382,14711,42.32,-78.0943
391,391,6033 Young Track Suite 804,383,6024,42.0158,-73.2913
392,392,05597 Michael Spurs,384,86018,35.2563,-111.95
393,393,04975 Allison Shoal,385,10463,40.8798,-73.9067
394,394,62934 Maria Cliffs Suite 350,386,38315,35.2289,-88.644
395,395,889 Sarah Station Suite 624,387,67851,37.9931,-100.9893
396,396,615 Clarke Spring Apt. 172,362,48088,42.5164,-82.9832
397,397,6744 Jimmy Extensions,388,14537,43.033,-77.1575
398,398,7309 Sophia Causeway Suite 702,389,56379,45.604,-94.1591
399,399,6458 Roberson Alley,390,63388,38.8874,-91.7689
400,400,135 Joseph Mountains,391,59871,45.8433,-113.8748
401,401,6114 Moran Way,392,4680,44.4971,-67.9503
402,402,976 Hubbard Lodge,393,55065,44.5274,-93.0196
403,403,376 John Fork Suite 848,394,44265,41.0109,-81.2977
404,404,35737 Kirby Fall Suite 409,395,15486,40.0246,-79.6955
405,405,32343 Saunders Course,396,62926,37.3712,-89.1349
406,406,682 Mills Way Apt. 814,397,79548,33.0771,-99.959
407,407,701 Wilson Divide,398,46322,41.55,-87.4569
408,408,61107 Edwards Dam Apt. 463,399,40914,37.1046,-83.5706
409,409,29606 Martinez Views Suite 653,400,5461,44.3346,-73.098
410,410,5270 Megan Burg Suite 756,401,56729,48.6669,-96.5969
411,411,5449 Brandi Heights Apt. 111,284,74130,36.2395,-95.9596
412,412,230 Ryan Tunnel Apt. 025,402,43321,40.4971,-82.8342
413,413,5619 Mendoza Inlet,403,31046,33.1194,-83.8235
414,414,408 Bradley Rest,404,24433,38.4207,-79.4629
415,415,721 Jacqueline Brooks,405,61272,41.2153,-90.9879
416,416,672 Randall Burg Suite 551,406,3220,43.4512,-71.489
417,417,4720 Anna Ways,407,62668,39.5723,-90.2379
418,418,24191 Elizabeth Mill,408,15923,40.3673,-79.1605
419,419,7402 West Ranch,409,97452,43.921,-122.7806
420,420,292 Lowe Dam Suite 858,410,33417,26.7197,-80.1248
421,421,033 Tara Brook Suite 523,411,73027,35.8985,-97.2607
422,422,2161 Blankenship Freeway,412,5084,43.7185,-72.4439
423,423,524 Wu Spurs Suite 894,413,35651,34.4793,-87.4769
424,424,154 Hernandez Keys,414,95567,41.9404,-124.1587
425,425,8973 Mark Drive,415,40170,37.9048,-86.524
426,426,13776 Hicks Plains,416,10970,41.1901,-74.0436
427,427,329 Emily Cape,417,33909,26.6939,-81.9452
428,428,8738 Richard Brooks,418,84532,38.5677,-109.5271
429,429,6251 Payne Flats Apt. 581,419,48636,44.6001,-84.2931
430,430,12444 Jacob Pines,420,4555,44.0943,-69.4828
431,431,7470 John Tunnel Suite 937,421,80014,39.6662,-104.835
432,432,125 Kristen Dale,422,32442,30.7148,-85.021
433,433,425 Caleb Point Apt. 050,423,92128,33.0067,-117.069
434,434,9579 Porter Tunnel,424,33873,27.5517,-81.8074
435,435,5745 Blair Locks,425,29170,33.9568,-81.1405
436,436,2123 Jonathan Falls Suite 753,426,37754,36.115,-84.0438
437,437,28777 Stewart Plains Apt. 495,427,61560,41.1949,-89.4409
438,438,31954 Eugene Lane Suite 572,428,67038,37.1641,-96.6917
439,439,825 Martinez Springs Apt. 625,429,24986,37.7827,-80.3129
440,440,3433 Jones Branch,430,95629,38.5234,-120.6763
441,441,043 Hanson Turnpike,431,52563,41.1826,-92.3097
442,442,42965 Christopher Fords Suite 659,188,71960,34.4596,-93.6743
443,443,4725 Hurst Curve Apt. 634,432,76366,33.6751,-98.6576
444,444,478 Alexandria Mount,433,28423,34.3091,-78.3372
445,445,7812 Shane Shoals Apt. 607,434,3774,44.0978,-72.0191
446,446,927 Cummings Manor Suite 318,435,53129,42.9373,-87.9943
447,447,209 Austin Stream Apt. 231,436,46290,39.9347,-86.1633
448,448,27909 Peter Motorway,437,42211,36.802,-87.8286
449,449,529 Joshua Knoll Apt. 511,438,82936,41.0552,-110.1603
450,450,386 James Roads Apt. 233,439,90014,34.0443,-118.2509
451,451,82468 Michelle Village Suite 556,440,60432,41.5378,-88.0572
452,452,7290 Ashlee Keys,441,65680,36.6704,-93.0377
453,453,144 Yu Locks Apt. 754,442,13342,42.6315,-75.1866
454,454,87227 Tapia Burgs,443,4210,44.0948,-70.239
455,455,1198 Robert Stravenue Apt. 479,444,10504,41.136,-73.7009
456,456,529 West Key,445,71277,32.955,-92.587
457,457,493 Todd Views,446,20882,39.2335,-77.1458
458,458,7915 Dawn Roads Apt. 544,447,11964,41.064,-72.3366
459,459,6963 Russell Causeway Suite 231,448,62935,37.8274,-88.6235
460,460,145 Jeffrey Key Suite 668,449,48850,43.4269,-85.2924
461,461,793 Hooper Tunnel Suite 154,450,22015,38.7894,-77.2818
462,462,26678 Lisa Locks Apt. 904,451,80736,40.7692,-103.0968
463,463,861 Karen Common,452,27258,36.0424,-79.3242
464,464,1943 Dennis Inlet Suite 145,453,25526,38.4257,-81.9943
465,465,193 Catherine Ways,454,56138,43.5335,-96.3645
466,466,25955 Amy Via,455,66070,39.2136,-95.4404
467,467,21178 Brittney Locks,456,29127,34.1832,-81.5324
468,468,246 Stewart Green Suite 149,457,71291,32.5317,-92.176
469,469,74835 Garner Point,458,89319,39.3426,-114.8859
470,470,79019 Taylor Cliffs,115,75238,32.877,-96.708
471,471,69608 Perez Mountain Apt. 006,459,72583,36.3924,-91.9932
472,472,053 Kim Valley Suite 928,460,37138,36.2416,-86.6117
473,473,8850 Jessica Center,461,23303,37.9073,-75.5089
474,474,174 Jennifer Meadow Apt. 467,462,73559,34.7032,-98.9591
475,475,63502 Brown Road Apt. 318,463,7764,40.2878,-74.0162
476,476,6911 Nicholas Keys Apt. 237,464,15920,40.4603,-79.0097
477,477,153 Mccullough Springs Apt. 857,465,56152,44.2378,-95.2739
478,478,121 Solis Summit Apt. 934,466,74875,35.8759,-96.9623
479,479,2881 Frey Village,467,29436,33.3364,-80.1859
480,480,383 Long Islands,468,13755,42.0716,-75.0152
481,481,8840 Miller Port Suite 645,469,92210,33.7163,-116.3381
482,482,23656 Harris Gardens Suite 698,470,79906,31.8092,-106.4247
483,483,85344 Smith Gateway Apt. 280,471,47434,39.013,-86.5457
484,484,2076 Thomas Roads Suite 970,472,29032,34.3424,-80.5
485,485,495 Fisher Throughway,473,38039,35.0659,-89.1534
486,486,9431 Amanda Mills,474,64076,38.9829,-93.9757
487,487,3595 Susan Island Suite 063,475,73669,35.7382,-98.7388
488,488,1049 John Ports Suite 057,476,97132,45.3099,-122.9685
489,489,622 Williams Trafficway,477,60072,42.4048,-88.3054
490,490,4923 Campbell Pines Suite 717,478,47838,38.9763,-87.3667
491,491,69459 Rachel Prairie Apt. 850,479,45638,38.5294,-82.6654
492,492,155 Gregory Mount Suite 791,480,81649,39.4584,-106.3851
493,493,401 Escobar Port,481,53120,42.8035,-88.4092
494,494,4879 Cristina Station,482,15449,39.9636,-79.7853
495,495,04139 Johnson Prairie Suite 401,365,48206,42.3749,-83.1087
496,496,0537 Margaret Common Suite 526,483,76834,31.8287,-99.427
497,497,9471 Wong Islands,484,44902,40.7559,-82.5123
498,498,5395 Colon Burgs Suite 037,485,76578,30.592,-97.2893
499,499,138 Stephen Ridges Apt. 978,486,32784,28.9254,-81.6801
500,500,27479 Reeves Dale,487,21872,38.4121,-75.2811
501,501,50614 Kevin Point,488,78631,30.2816,-99.241
502,502,2622 Reynolds Isle,489,68403,40.9207,-96.168
503,503,9727 Deleon Mountain,490,27522,36.1124,-78.6476
504,504,519 Jerry Views,491,51521,41.4768,-95.3509
505,505,561 Perry Cove,492,28654,36.0788,-81.1781
506,506,78117 George Mountains,493,96776,20.0271,-155.3697
507,507,2918 David Spurs,494,56546,47.0999,-96.727
508,508,5796 Lee Coves Apt. 286,495,72476,36.0244,-90.9288
509,509,057 Martinez Radial,496,71854,33.431,-93.8765
510,510,956 Paul Fields Suite 108,497,55771,48.1439,-92.8561
511,511,23142 Montoya Island Apt. 742,498,15829,41.1762,-79.1976
512,512,337 Michael Harbors Suite 722,499,58259,48.0204,-98.1186
513,513,285 George Lake,500,15010,40.7687,-80.3592
514,514,2887 Olson Road Suite 439,501,55428,45.0632,-93.3811
515,515,320 Nicholson Orchard,502,84540,38.9999,-109.615
516,516,1025 Robin Square,503,72513,36.2201,-91.6421
517,517,08236 Kim Hill,436,46254,39.849,-86.272
518,518,07943 Davis River,504,27837,35.558,-77.2566
519,519,25961 Beverly Union Apt. 042,505,28659,36.2017,-81.1286
520,520,6611 Parrish Garden Apt. 428,506,45896,40.6072,-83.9585
521,521,8415 Vaughn Squares Apt. 788,507,3601,43.196,-72.3001
522,522,2674 Bentley Radial,508,24236,36.6403,-81.7776
523,523,6638 Lucero Mill Suite 952,509,75661,32.6205,-94.2
524,524,7566 Thompson Creek Apt. 827,510,50073,41.8114,-93.4855
525,525,5278 Sarah Station Apt. 009,511,63829,36.0434,-90.2907
526,526,1893 Katie Tunnel,512,68881,41.4193,-99.3844
527,527,0362 Anderson Wall,513,64470,40.1362,-95.2138
528,528,071 Wise Trace,514,58531,47.5196,-101.2332
529,529,0900 Beverly Landing,515,40209,38.1901,-85.7519
530,530,7483 Navarro Flats,516,83120,43.0172,-111.0292
531,531,086 Pierce Cove,517,21208,39.3764,-76.729
532,532,0423 Kirby Field Suite 623,518,60091,42.0765,-87.7246
533,533,77944 Daniels Valley Suite 921,519,13316,43.3392,-75.7543
534,534,118 Cabrera Springs Apt. 105,520,32323,29.8826,-84.5964
535,535,37732 Joe Courts Apt. 752,521,31305,31.3826,-81.4312
536,536,010 Salazar Walk,522,41810,37.1788,-82.695
537,537,296 Maria Street,523,13484,42.8546,-75.6605
538,538,02018 Gary Key Apt. 911,524,64058,39.1412,-94.3515
539,539,3423 Michael Canyon Suite 276,525,41254,37.8795,-82.7251
540,540,0069 Robin Brooks Apt. 695,526,49628,44.5995,-86.2141
541,541,5097 Martin Ridges,501,55403,44.9673,-93.2828
542,542,31493 Garcia Summit,527,97813,45.8289,-118.4971
543,543,0953 David Skyway,528,39840,31.7706,-84.7936
544,544,7369 Gabriel Tunnel,529,49775,45.7549,-84.447
545,545,5323 Walker Island,530,15217,40.4308,-79.9205
546,546,1499 Michael Rue,531,22213,38.8954,-77.1633
547,547,39218 Baker Shoals,532,47515,38.1981,-86.6821
548,548,6343 Ramirez Skyway Apt. 518,533,95453,39.047,-122.9328
549,549,062 Poole Hollow Apt. 815,534,57732,44.3566,-103.6999
550,550,2970 Flores Brooks,535,71762,33.3398,-92.7442
551,551,7302 Samantha Mission,536,68723,42.277,-97.1926
552,552,3603 Mitchell Court,537,25213,38.5072,-81.89
553,553,08932 Bonnie Stravenue,538,34135,26.3771,-81.7334
554,554,872 Justin Views Suite 746,539,38740,34.047,-90.7652
555,555,39227 Mcpherson Shoals,108,73754,36.385,-98.0727
556,556,99736 Rose Shoals Apt. 504,9,16858,41.0001,-78.2357
557,557,67089 Caitlin Meadow Apt. 905,540,39769,33.357,-89.0473
558,558,75703 Hernandez Corner Suite 348,541,33620,28.06,-82.4079
559,559,098 Stewart Hill,542,37165,36.2835,-87.4581
560,560,84079 Thomas Burgs,543,94971,38.2427,-122.9145
561,561,0189 Emily Prairie,544,67232,37.6395,-97.1714
562,562,08580 Jeremy Falls,545,97107,45.5197,-123.8761
563,563,70147 Amanda Fields,546,14778,42.2701,-78.6847
564,564,916 Charles Road,547,45307,39.5756,-83.7153
565,565,2306 Clark Ranch Suite 515,548,57439,45.329,-98.0837
566,566,9412 Harris Mews,549,79539,33.3749,-99.8473
567,567,742 Oneill Shore,550,39073,32.153,-90.1217
568,568,526 Stacy Walks,551,57426,45.7205,-98.5534
569,569,3277 Fields Meadows Apt. 790,552,96037,41.5403,-122.9366
570,570,4440 George Mills Suite 591,115,75210,32.7699,-96.743
571,571,27203 Darrell Landing,553,33956,26.529,-82.0916
572,572,68248 Deanna Land,554,72047,35.2087,-92.2123
573,573,3867 Susan Corners Apt. 883,555,63533,40.1959,-92.4333
574,574,6003 Brady Shoal Apt. 449,556,31042,32.8088,-83.174
575,575,24607 Charles Mountains,557,16034,40.8555,-79.7372
576,576,168 Michael Coves Suite 343,558,93529,37.7773,-119.0825
577,577,95793 Andrea Ville Suite 533,559,50314,41.603,-93.633
578,578,0912 Mark Fields Apt. 080,560,17051,40.5046,-77.7186
579,579,82201 Bradley Radial Suite 703,561,30803,33.141,-82.515
580,580,4664 Sanchez Common Suite 930,562,29819,34.0326,-82.2027
581,581,371 Anthony Trail Suite 354,563,24340,36.7779,-81.7676
582,582,72030 Shelton Crossing Apt. 742,564,7980,40.6774,-74.4968
583,583,4349 Anna Flat Suite 214,565,72341,34.8838,-90.7666
584,584,542 Finley Ports Apt. 396,566,15377,39.9914,-80.4408
585,585,118 Justin Extension,567,36507,30.8635,-87.7644
586,586,152 James Centers Apt. 768,365,48221,42.426,-83.15
587,587,369 Cochran Radial,568,27311,36.4899,-79.4736
588,588,382 Williams Stream Suite 197,569,20687,38.0828,-76.3477
589,589,147 Mckinney Run Apt. 743,570,29081,33.1044,-81.0221
590,590,598 Martin Pine Suite 365,571,55128,44.9913,-92.9487
591,591,901 Ariel Points,572,12093,42.4999,-74.6117
592,592,22502 Baker Mount Suite 241,573,42049,36.5422,-88.3319
593,593,1145 Tony Drive Suite 080,574,55388,44.9595,-93.8482
594,594,9870 Collins Flat,575,82072,41.4247,-105.4781
595,595,94431 Matthew Mall Suite 296,576,6782,41.6611,-73.0449
596,596,5364 William Harbor,577,54654,43.2064,-90.9405
597,597,3310 Davidson Spurs Apt. 107,578,47451,38.8938,-86.5246
598,598,653 Jessica Extension Apt. 668,579,29324,34.9906,-81.8327
599,599,956 Sanchez Highway,580,41836,37.2692,-82.9161
600,600,7854 Stephanie Island Suite 788,581,43985,40.0113,-80.9701
601,601,0182 Owens Burgs Suite 480,317,44412,41.0935,-81.0425
602,602,81446 Nicole Highway Apt. 874,582,8350,39.485,-74.8776
603,603,6760 Donovan Lakes,583,74536,34.5906,-95.38
604,604,75952 Wilson Course,584,68973,40.4591,-98.5551
605,605,92021 Miranda Meadows,585,62888,38.138,-89.2231
606,606,840 Werner Lock Apt. 852,586,68932,40.2967,-98.737
607,607,5036 Victoria Ports Suite 249,587,15834,41.5177,-78.2536
608,608,144 Evans Islands Apt. 683,588,99323,46.1966,-118.9017
609,609,7952 Karen Pike,589,66018,38.9462,-94.9714
610,610,651 Miller Common,590,4047,43.745,-70.9092
611,611,148 Baker Field,591,19017,39.8839,-75.4669
612,612,7955 Allen Orchard Apt. 336,592,31329,32.3697,-81.3618
613,613,583 Gray Creek,593,12460,42.4069,-74.1528
614,614,72743 Brian Run,594,85253,33.5494,-111.9565
615,615,172 Paula Inlet Apt. 650,595,76443,32.1482,-99.1872
616,616,1323 Derek Mission,596,58765,48.8856,-103.0098
617,617,8699 Lindsay Ford Apt. 486,597,94558,38.4549,-122.2564
618,618,083 Karen Island Apt. 656,598,62939,37.575,-88.9655
619,619,616 Jimenez Meadow Apt. 701,599,14445,43.1128,-77.4906
620,620,4739 Martin Common,600,45698,39.283,-82.3977
621,621,7421 Serrano Lane Apt. 580,601,37849,36.0435,-84.04
622,622,128 Nathan Ramp,602,13304,43.2237,-75.1612
623,623,26615 Nelson Lane,603,47032,39.0945,-85.0638
624,624,321 Camacho Causeway,604,7005,40.9115,-74.414
625,625,8929 Phillips Corners Suite 259,605,16037,40.8496,-80.1381
626,626,252 Melissa Rapids Suite 944,606,29105,33.8084,-81.5956
627,627,1984 Taylor Island Suite 836,607,22046,38.8856,-77.1802
628,628,7177 Steven Forges,608,97476,42.825,-124.4409
629,629,537 Walker Freeway,609,14120,43.0498,-78.851
630,630,870 Rocha Drive,610,7640,40.9918,-73.98
631,631,4936 Michelle Points,611,62571,39.39,-88.9597
632,632,242 Brian Mountain,612,78040,27.5155,-99.4986
633,633,1980 Vasquez Manors Apt. 574,613,24070,37.3696,-80.1284
634,634,62130 Miller Square Suite 785,614,39825,30.9788,-84.7373
635,635,663 Ramirez Trace Apt. 951,615,35811,34.7789,-86.5438
636,636,84033 Pitts Overpass,128,33809,28.1762,-81.9591
637,637,91644 Crystal Drives,616,62023,39.1118,-89.7855
638,638,477 Alejandro Knolls Suite 828,617,97441,43.7857,-124.1437
639,639,97405 Vazquez Plains,618,36111,32.3374,-86.2715
640,640,304 Ryan Port Suite 335,619,64017,39.2048,-94.0259
641,641,7377 Walton Extensions Apt. 979,115,75236,32.69,-96.9177
642,642,329 Michael Extension,620,1843,42.6911,-71.1605
643,643,37426 Olson Villages,621,16329,41.8117,-79.2643
644,644,126 Underwood Drive,423,92128,33.0067,-117.069
645,645,1976 Tyler Underpass,622,50535,42.4483,-95.1726
646,646,3683 Parrish Circles,623,81005,38.2352,-104.66
647,647,9853 Flynn Hollow Apt. 602,624,58275,47.7068,-97.2092
648,648,065 Jones Stravenue,625,97034,45.4093,-122.6847
649,649,13299 Patrick Terrace,626,58651,46.1664,-103.7079
650,650,517 Vasquez Lodge,627,98665,45.6892,-122.6616
651,651,28925 Powell Mountains Apt. 762,628,79772,31.4467,-103.5791
652,652,0005 Morrison Land,629,74047,35.8896,-96.0887
653,653,374 Christopher Ramp Suite 855,630,29817,33.3645,-81.2718
654,654,6274 David Oval Suite 725,631,4074,43.5835,-70.3457
655,655,40847 Stark Junctions,632,12410,42.074,-74.453
656,656,0611 Stafford Valley Suite 504,293,34112,26.1184,-81.7361
657,657,172 Leonard Island,633,80436,39.7532,-105.6356
658,658,69085 Short Shores,634,14707,42.0737,-78.0594
659,659,8465 Reed Green Suite 559,635,17850,40.9661,-76.8575
660,660,609 Hunt Grove,636,40062,37.6047,-85.4251
661,661,755 Solis Isle Suite 075,637,62266,38.4857,-89.6816
662,662,1299 Joshua Plains,638,12092,42.7045,-74.3648
663,663,3316 Cindy Land,639,74555,34.2691,-95.9685
664,664,822 Austin Spur,640,46366,41.2244,-86.6966
665,665,9588 Cox Rapid Apt. 257,641,19310,39.9458,-75.9703
666,666,920 Patrick Light,642,61335,41.173,-89.2187
667,667,919 Miller Isle,643,47470,38.7735,-86.6285
668,668,7320 Jennifer Forges,644,21658,39.0026,-76.1424
669,669,6602 Ortiz Pine Apt. 179,645,76626,32.0758,-96.701
670,670,6412 Elizabeth Gardens Suite 633,646,41056,38.6207,-83.8067
671,671,5053 Bell Crescent Apt. 255,647,68638,41.366,-98.0054
672,672,83685 Matthew Center Suite 870,648,72529,36.3011,-91.5281
673,673,3283 James Station,649,28314,35.0583,-79.008
674,674,838 Dan Haven Suite 003,650,50595,42.4657,-93.8262
675,675,63542 Luna Brook Apt. 012,651,79759,31.8599,-102.7413
676,676,428 Michael Tunnel Apt. 377,652,35049,33.9778,-86.5598
677,677,79209 Gary Dale,653,99113,46.5901,-117.1692
678,678,182 Sergio Summit Apt. 129,654,64630,40.029,-93.1607
679,679,445 Jerry Lights Apt. 081,655,49879,46.368,-87.9938
680,680,8986 Fitzgerald Plains,656,72959,35.8312,-94.1187
681,681,886 Nicole Key,657,74074,36.1043,-97.0609
682,682,90662 Lewis Avenue,658,2908,41.8383,-71.4377
683,683,79816 Jackson Squares,659,97377,44.453,-123.1065
684,684,594 White Dale Suite 530,660,83252,42.1808,-112.262
685,685,44197 Jeffrey Port Suite 050,661,8014,39.8016,-75.3478
686,686,619 Jeremy Garden Apt. 681,662,53803,42.5545,-90.3508
687,687,83359 Lopez Point,663,15727,40.5503,-79.3237
688,688,458 Phillips Island Apt. 768,664,70726,30.459,-90.9027
689,689,17667 Price Spur Apt. 366,665,17327,39.7813,-76.7477
690,690,622 Robert Summit,666,44307,41.0695,-81.5488
691,691,6014 Thomas Throughway,667,75490,33.4235,-96.3398
692,692,334 Adam Mountains Apt. 868,668,23106,37.7184,-77.186
693,693,38352 Parrish Road Apt. 652,669,29860,33.6028,-81.9748
694,694,2064 Tyler Fork,670,77417,29.479,-95.9681
695,695,44089 Carrie Crossing Suite 954,671,78113,28.9814,-98.0156
696,696,3312 Rachel Parks Suite 474,672,13469,43.2229,-75.2899
697,697,610 Samantha Park Suite 149,673,50598,43.0261,-94.4064
698,698,298 Kayla Lights,674,19007,40.1159,-74.8536
699,699,907 Courtney Via Apt. 896,675,40336,37.6858,-83.9862
700,700,08966 Beltran Route Suite 905,676,19456,40.1334,-75.4536
701,701,901 Todd Gardens Apt. 466,677,92561,33.6401,-116.5567
702,702,94225 Smith Springs Apt. 617,678,32960,27.633,-80.4031
703,703,85430 Julie Trafficway Suite 792,679,62262,38.9311,-89.2463
704,704,144 Martinez Curve,680,47110,38.097,-86.1723
705,705,736 Moss Motorway Suite 549,681,86329,34.5189,-112.2523
706,706,3304 Hernandez Run,682,49705,45.3637,-84.4695
707,707,3160 Tina Estates Suite 234,683,29661,35.0296,-82.5136
708,708,9824 Mitchell Run,684,97753,44.2415,-121.0113
709,709,220 Frank Gardens,685,54441,44.6437,-90.1031
710,710,23383 Denise Pine Apt. 099,285,95842,38.6865,-121.3494
711,711,7337 Browning Falls Suite 027,686,31605,30.946,-83.2474
712,712,200 Christie Mills Apt. 307,687,28901,35.1959,-83.8228
713,713,560 Molina Path,688,11769,40.7382,-73.1297
714,714,582 Rodriguez Wells,689,87109,35.1506,-106.569
715,715,62931 Ralph Court,128,33813,27.9611,-81.9398
716,716,30587 Fox Shores Apt. 627,557,16034,40.8555,-79.7372
717,717,343 Joshua Views,690,46946,41.0356,-85.7358
718,718,621 Smith Hollow Apt. 738,225,66616,39.0645,-95.6413
719,719,54220 April Union Suite 403,691,48193,42.1782,-83.2461
720,720,5155 Mary Common Apt. 927,692,16362,41.4798,-79.9403
721,721,88794 Mandy Lodge Apt. 874,693,68641,41.6964,-96.9858
722,722,8510 Acevedo Burgs,694,97033,45.0838,-120.6649
723,723,74890 Rodriguez Springs Apt. 540,695,14586,43.0397,-77.6871
724,724,551 Zachary Freeway,696,27807,35.8072,-78.0892
725,725,1471 Alicia Flat Apt. 993,697,11413,40.6645,-73.7559
726,726,20937 Reed Lakes Apt. 271,57,20012,38.9757,-77.0282
727,727,231 Flores Pass Suite 720,698,22824,38.8432,-78.6003
728,728,5204 Robinson Plaza Suite 897,699,2630,41.6983,-70.3001
729,729,37910 Ward Lights,700,1545,42.2848,-71.7205
730,730,463 Willie Estates,701,74633,36.6966,-96.7869
731,731,169 Edward Inlet,702,63131,38.6171,-90.4504
732,732,03090 Fisher Forges Apt. 200,544,67216,37.6223,-97.3136
733,733,4456 Dunn Roads,703,81642,39.3199,-106.6596
734,734,3426 David Divide Suite 717,704,73624,35.3492,-99.188
735,735,343 Hannah Parkway,705,25049,38.1372,-81.5962
736,736,00821 Joanna Meadow,706,53926,43.6718,-89.1918
737,737,6366 French Field,707,12455,42.1852,-74.6178
738,738,354 Gutierrez Gateway,708,56019,44.1111,-94.9134
739,739,95488 Cabrera Well,709,45860,40.4062,-84.5076
740,740,88325 Brandon Greens Apt. 477,365,48202,42.377,-83.0796
741,741,24255 Bryan Square,710,58769,48.3396,-102.24
742,742,0107 Clements Point,711,84003,40.3928,-111.7941
743,743,785 Kevin Walk Suite 237,712,68626,41.1832,-96.9882
744,744,39631 Dunn Radial,713,3753,43.5103,-72.1334
745,745,25360 Mcgee Forge,714,71832,34.0442,-94.3386
746,746,005 Cody Estates,515,40202,38.2507,-85.7476
747,747,43075 Cohen Shoals,715,98304,46.7531,-121.9898
748,748,73869 Connie Prairie,716,31092,32.0913,-83.7922
749,749,57887 Gutierrez Harbor,717,97492,43.7575,-122.481
750,750,9134 Darryl Flat Suite 916,718,45879,41.141,-84.5722
751,751,464 Newman Crossroad,719,53228,42.9676,-88.0434
752,752,8580 Moore Cove,720,99783,64.7556,-165.6723
753,753,8011 Chapman Tunnel Apt. 568,721,96103,39.8127,-120.6405
754,754,1007 Colton Forks,722,23860,37.2876,-77.295
755,755,46095 Tara Fords,723,3452,42.8178,-72.0275
756,756,58188 Madison Meadow Apt. 949,724,14037,42.8112,-78.4481
757,757,707 Butler Parkways Apt. 747,725,68117,41.2064,-95.9953
758,758,558 Michael Estates,726,63453,40.4931,-91.8912
759,759,35440 Ryan Islands,727,53153,42.9385,-88.395
760,760,46297 Benjamin Plains Suite 703,728,43160,39.537,-83.455
761,761,8030 Walker Heights,729,57717,44.6723,-103.8396
762,762,2989 Murray Inlet,57,20017,38.9367,-76.994
763,763,1632 Cohen Drive Suite 639,730,88325,32.9396,-105.8189
764,764,4900 Curtis Gardens Suite 952,731,31632,30.9416,-83.3574
765,765,6807 Jacob Skyway Apt. 331,732,50469,43.0032,-93.2167
766,766,9670 Monroe Junctions,733,15557,39.9373,-79.1865
767,767,21810 James Mall,734,75934,30.9,-94.7547
768,768,3854 Lauren Springs Suite 648,735,62673,40.0994,-89.9601
769,769,56160 Nicholas Isle,736,43767,39.9934,-81.8024
770,770,1287 Michael Roads,737,89704,39.2669,-119.8174
771,771,50932 Neal Valley,738,25832,37.7256,-81.1087
772,772,1233 Sutton Road Suite 701,739,76631,31.9907,-96.9837
773,773,62631 Ashley Ramp Apt. 965,740,31561,31.1989,-81.3322
774,774,669 Moore Shoal,741,45106,38.9424,-84.092
775,775,0701 John Ranch,742,97210,45.5303,-122.7033
776,776,084 Holmes Avenue Suite 206,743,97383,44.8021,-122.7624
777,777,0881 Lori Pines,744,21619,38.9583,-76.2842
778,778,454 Sawyer Forks Apt. 231,745,56321,45.5783,-94.4199
779,779,36366 Smith Road,746,45342,39.6321,-84.2675
780,780,9808 Ellis Bypass,747,14510,42.6835,-77.8664
781,781,5452 Patricia Inlet Apt. 280,748,68961,40.201,-98.0684
782,782,25713 Hamilton Grove Apt. 903,749,45808,40.8314,-83.9758
783,783,55505 Christy Via,750,56549,46.9777,-96.4092
784,784,265 Mullen Park Apt. 307,751,27358,36.2245,-79.8901
785,785,019 Kimberly Light Apt. 039,752,31547,30.7906,-81.5607
786,786,797 Jennifer Loop Suite 634,753,56068,43.8295,-93.8282
787,787,265 Christian Summit Suite 231,754,36532,30.5012,-87.8835
788,788,0157 Samuel Mission Suite 379,755,11419,40.6868,-73.823
789,789,047 Kevin Haven,756,54726,44.9437,-91.0294
790,790,5884 Sandoval Square Apt. 371,757,7711,40.2367,-74.0067
791,791,6157 Nichols Mews,758,6444,41.7918,-72.7188
792,792,312 Eric Expressway Apt. 014,759,36869,32.4204,-85.0796
793,793,13956 Hughes Causeway Suite 124,760,59710,45.1939,-112.0568
794,794,133 Alyssa Plains,761,77971,28.7724,-96.4793
795,795,20938 Barbara Viaduct,30,10280,40.7105,-74.0163
796,796,865 Thomas Village,762,10962,41.0442,-73.9609
797,797,16744 Campbell Wall Apt. 372,763,22853,38.6476,-78.7717
798,798,646 Louis Fort Apt. 665,764,89084,36.2815,-115.1482
799,799,268 Hayes Rue Suite 811,765,16421,42.1767,-79.9416
800,800,40178 Lisa Mission,766,82711,44.6873,-104.4414
801,801,5901 Foster Pine,767,70062,29.9912,-90.2479
802,802,431 Tracy Expressway,768,30257,33.141,-84.1759
803,803,574 Patricia Extensions,769,79413,33.5466,-101.8871
804,804,852 Thomas Well Suite 339,770,65066,38.3511,-91.4867
805,805,493 Fitzgerald Fields Suite 454,771,30756,34.9298,-84.9885
806,806,2056 Michael Wells Apt. 348,772,47869,39.4336,-87.4101
807,807,195 Murray Overpass Apt. 384,773,54896,45.8327,-91.0144
808,808,853 Miller Bypass Suite 802,774,80021,39.8854,-105.1139
809,809,6385 Donald Square Suite 429,775,22151,38.8029,-77.2116
810,810,5758 Yates Center,776,96135,40.0235,-120.7986
811,811,32600 Cobb Curve,777,36775,32.2844,-86.992
812,812,6778 Campos Field,778,60913,41.1573,-88.0619
813,813,507 John Overpass Suite 424,779,20776,38.8582,-76.6145
814,814,082 Hernandez Bypass Apt. 886,780,79252,34.2956,-99.7494
815,815,03368 Michelle Trail,781,72059,35.1791,-91.2594
816,816,1535 Ryan Burgs Suite 919,559,50312,41.5855,-93.6719
817,817,490 Baldwin Alley Apt. 468,782,87313,35.7206,-108.0271
818,818,2711 Duran Pines,783,96727,20.0827,-155.488
819,819,290 Kathryn Fall,615,35803,34.6205,-86.551
820,820,4483 Sharp Ferry Apt. 468,784,67529,38.0649,-99.2374
821,821,44864 Melton Vista Suite 310,255,95148,37.3304,-121.7913
822,822,3136 Silva Stream,785,80138,39.5102,-104.7216
823,823,815 Heather Divide Apt. 965,786,76905,31.4647,-100.39
824,824,754 Smith Isle,787,43903,40.4731,-80.9596
825,825,0688 Kevin Manor,788,63336,39.3465,-90.9362
826,826,1125 Ray Track,789,48154,42.3958,-83.3772
827,827,0207 Griffith Plains Apt. 544,790,63353,39.4336,-91.0664
828,828,324 Donna Ridge Suite 651,791,17929,40.6284,-76.195
829,829,257 Victor Stravenue,792,23666,37.0462,-76.4096
830,830,5069 Scott Pass Apt. 654,793,39653,31.4285,-90.8578
831,831,954 White Alley Apt. 251,794,35581,34.347,-87.7154
832,832,04611 Sandra Spring Suite 059,795,49826,46.3481,-87.0436
833,833,42933 Ryan Underpass,796,57756,43.3526,-102.5411
834,834,2193 Osborne Run Apt. 789,797,62067,38.9318,-89.9618
835,835,3325 Gregory Square,798,48043,42.5978,-82.8823
836,836,3703 Benson Wells,799,14522,43.0622,-77.2218
837,837,240 Tracy Forges,800,66020,39.3391,-95.0999
838,838,838 Amy Street Suite 107,801,28372,34.6902,-79.1834
839,839,755 Gardner Heights Apt. 420,802,1612,42.3066,-71.9202
840,840,18316 Cannon Place,803,4953,44.8393,-69.2675
841,841,9455 Kathleen Brook Apt. 651,804,99746,65.6899,-156.292
842,842,7683 Natasha Way Apt. 945,805,53186,42.9993,-88.2196
843,843,93970 Trujillo Causeway,806,50527,42.9633,-94.7975
844,844,471 Marquez Prairie Suite 680,807,63867,36.7154,-89.6287
845,845,3872 Matthew Skyway,808,38949,34.1992,-89.382
846,846,980 Smith Gardens,809,76240,33.6547,-97.1583
847,847,46809 Toni Flat Suite 216,810,87540,35.4311,-105.9409
848,848,77321 Ford Via,811,11955,40.8095,-72.8229
849,849,4548 Werner Wells Apt. 441,812,15458,39.8882,-79.8694
850,850,3495 Williams Stream,423,92101,32.7185,-117.1593
851,851,6340 Jeffrey Dale,813,43076,39.8974,-82.4071
852,852,36659 Smith Club Apt. 080,814,87543,36.1486,-105.6648
853,853,244 Jeffery Rapids,815,91702,34.1248,-117.9031
854,854,5045 Emily Wall,816,52768,41.6858,-90.3706
855,855,83719 Wilson Shore,817,8324,39.224,-74.9942
856,856,06539 Gregory Mountains Suite 029,818,92267,34.298,-114.156
857,857,28223 Ward Summit Apt. 664,819,80005,39.8422,-105.1097
858,858,0654 Kevin Turnpike Apt. 084,820,11768,40.9051,-73.3309
859,859,588 Smith Lights Suite 786,821,43070,40.2158,-83.9579
860,860,674 Maureen Summit Apt. 276,822,97375,44.9897,-122.6187
861,861,575 Chapman Union,823,77379,30.0377,-95.5326
862,862,776 Martin Ridge,824,3858,42.8678,-71.042
863,863,358 Pruitt Square,825,32565,30.8985,-87.1332
864,864,58761 Brewer Rapids,826,18357,41.2336,-75.2389
865,865,03921 Cole Mission Suite 882,827,32044,29.8575,-82.1483
866,866,83555 Melinda Spurs,828,21087,39.4558,-76.4147
867,867,7452 Browning Port,829,57641,45.7084,-101.1546
868,868,85932 Marc Throughway Apt. 080,830,14479,43.2363,-78.3138
869,869,273 Phillip Throughway,831,56117,43.5336,-95.6515
870,870,4470 Jillian Courts,832,53910,43.8967,-89.8219
871,871,14017 Thomas Plaza,833,62661,39.6704,-89.8588
872,872,295 Page Creek Suite 181,834,23357,37.7681,-75.6664
873,873,4602 Lopez Glens Suite 900,835,44804,41.1116,-83.502
874,874,213 Gill Expressway,836,12037,42.3496,-73.5873
875,875,995 Benjamin Bypass,837,31630,31,-82.8555
876,876,77127 Paul Station Apt. 495,838,84087,40.8874,-111.9027
877,877,025 White Fork Apt. 633,839,18246,40.954,-76.1747
878,878,4742 Alexandria Mountain,840,54229,44.5592,-87.8235
879,879,96122 Steven Flat,841,31003,32.6064,-83.2095
880,880,86542 Jessica Fords Apt. 706,842,47987,40.1186,-87.2602
881,881,7529 Carter Well Suite 262,843,92648,33.6773,-118.0051
882,882,7314 Johnson Square Apt. 296,844,42634,36.8347,-84.4436
883,883,9242 Vanessa Ramp Apt. 525,845,61477,40.4855,-90.2856
884,884,6027 Scott Meadows Suite 494,846,79837,31.924,-105.2099
885,885,933 Martin Rapids,847,76445,32.2819,-98.5673
886,886,875 Amy Point,848,73719,36.9412,-98.2458
887,887,27720 Martin Hills,849,56672,47.0874,-93.9196
888,888,06808 Ryan Valleys,850,42731,36.8421,-85.5396
889,889,27823 Andrew Underpass Suite 948,851,70003,29.9975,-90.2146
890,890,6888 Hicks Stream Suite 954,852,15665,40.3359,-79.6607
891,891,13613 Hammond Ferry,853,52217,42.0789,-92.3763
892,892,8829 Steele Station,854,67635,39.6094,-100.4112
893,893,53142 Katrina Roads Suite 889,855,98836,47.4852,-120.4158
894,894,9297 Victor Rest Apt. 382,689,87116,35.0561,-106.5506
895,895,92213 Lee Well,410,33404,26.7832,-80.0638
896,896,6993 Carr Lodge Apt. 311,856,97910,42.8801,-117.281
897,897,957 Miller Falls,857,37302,35.0149,-85.0164
898,898,5812 Ramos Oval Suite 598,858,68869,41.0233,-98.9041
899,899,0638 Fred Ramp Suite 086,859,93552,34.5715,-118.0231
900,900,89297 Wilson Green Suite 601,860,52760,41.5646,-91.0859
901,901,766 Potter Well,861,12992,44.797,-73.5112
902,902,91542 Marissa Shores Apt. 053,862,50664,42.7012,-92.0762
903,903,08469 Trujillo Forge,863,14141,42.52,-78.6847
904,904,7911 Campbell Crossing Apt. 725,864,2180,42.4828,-71.0978
905,905,7538 Carrie Meadow Suite 574,865,91711,34.1092,-117.7183
906,906,539 Underwood Divide,866,72751,36.4539,-94.118
907,907,7351 Cindy Well Suite 099,293,34120,26.3304,-81.5871
908,908,204 Ashley Neck Apt. 169,867,6365,41.5224,-71.9934
909,909,66035 Benjamin Villages,868,65354,38.6547,-92.8929
910,910,44613 James Turnpike,869,56367,45.7364,-94.1658
911,911,77686 Donald Bridge Apt. 711,870,28530,35.3757,-77.4193
912,912,610 Pacheco Parkway,607,22046,38.8856,-77.1802
913,913,9652 Ford Ford Apt. 566,531,22204,38.859,-77.0997
914,914,914 Nancy Square,39,35211,33.4816,-86.859
915,915,742 Sellers Ferry,871,40502,38.0174,-84.4854
916,916,4481 Maldonado Hollow,872,13795,42.0695,-75.7967
917,917,53199 Laurie Mills Apt. 864,873,87417,36.741,-108.351
918,918,7908 Derrick Mount,874,66958,39.8616,-97.1825
919,919,13128 Hall Station Suite 588,875,65745,36.5276,-93.9359
920,920,6386 Bailey Hill Apt. 421,876,98118,47.5412,-122.275
921,921,007 Tonya Isle Suite 299,877,52658,40.7067,-91.2268
922,922,537 Brian Island,878,73044,35.833,-97.436
923,923,5942 Thomas Park,879,99921,55.4732,-133.1171
924,924,1327 Rose Causeway Apt. 610,880,38668,34.6323,-89.8855
